{
	"type" : "FeatureCollection",
	"name" : "taz.view_eco_standorte",
	"features" : [
		{
			"type" : "Feature",
			"geometry" : {
				"type" : "Point",
				"coordinates" : [ 8.5232863887, 47.4136413252 ]
			},
			"properties" : {
				"abkuerzung" : "VZS_BINZ",
				"bezeichnung" : "Binzmühlestrasse",
				"bis" : "20180404000000",
				"fk_zaehler" : "ECO09113500",
				"id1" : 7,
				"richtung_in" : "Oerlikon",
				"richtung_out" : "Glaubtenstrasse",
				"von" : "20101130000000",
				"objectid" : "1",
				"korrekturfaktor" : 1.22
			}
		},
		{
			"type" : "Feature",
			"geometry" : {
				"type" : "Point",
				"coordinates" : [ 8.5334521513, 47.3989104954 ]
			},
			"properties" : {
				"abkuerzung" : "VZS_BUCH",
				"bezeichnung" : "Bucheggplatz",
				"bis" : "20190313000000",
				"fk_zaehler" : "ECO09113505",
				"id1" : 16,
				"richtung_in" : "Hofwiesenstrasse",
				"richtung_out" : "Höngg",
				"von" : "20140626000000",
				"objectid" : "2",
				"korrekturfaktor" : 1.27
			}
		},
		{
			"type" : "Feature",
			"geometry" : {
				"type" : "Point",
				"coordinates" : [ 8.4855719536, 47.4021427627 ]
			},
			"properties" : {
				"abkuerzung" : "VZS_KLOW",
				"bezeichnung" : "Kloster-Fahr-Weg",
				"bis" : "20200203000000",
				"fk_zaehler" : "Y0412032046",
				"id1" : 53,
				"richtung_in" : "Stadtgrenze",
				"richtung_out" : "Innenstadt",
				"von" : "20100625000000",
				"objectid" : "3",
				"korrekturfaktor" : 0.94
			}
		},
		{
			"type" : "Feature",
			"geometry" : {
				"type" : "Point",
				"coordinates" : [ 8.5339698838, 47.4007568451 ]
			},
			"properties" : {
				"abkuerzung" : "VZS_HOFW",
				"bezeichnung" : "Hofwiesenstrasse",
				"bis" : "20190313000000",
				"fk_zaehler" : "ECO09113507",
				"id1" : 13,
				"richtung_in" : "Bucheggplatz",
				"richtung_out" : "---",
				"von" : "20100923000000",
				"objectid" : "4",
				"korrekturfaktor" : 1.28
			}
		},
		{
			"type" : "Feature",
			"geometry" : {
				"type" : "Point",
				"coordinates" : [ 8.5434325077, 47.3691225029 ]
			},
			"properties" : {
				"abkuerzung" : "VZS_LIMB",
				"bezeichnung" : "Limmatquai --> Bellevue",
				"bis" : "20190603000000",
				"fk_zaehler" : "Y2G14045587",
				"id1" : 61,
				"richtung_in" : "Bellevue",
				"richtung_out" : "---",
				"von" : "20140625000000",
				"objectid" : "5",
				"korrekturfaktor" : 1.47
			}
		},
		{
			"type" : "Feature",
			"geometry" : {
				"type" : "Point",
				"coordinates" : [ 8.5369540662, 47.3849977821 ]
			},
			"properties" : {
				"abkuerzung" : "VZS_LUXG",
				"bezeichnung" : "Lux-Guyer-Weg",
				"bis" : "20181220000000",
				"fk_zaehler" : "ECO09022739",
				"id1" : 5,
				"richtung_in" : "Innenstadt",
				"richtung_out" : "Wipkingen",
				"von" : "20091202000000",
				"objectid" : "6",
				"korrekturfaktor" : 1
			}
		},
		{
			"type" : "Feature",
			"geometry" : {
				"type" : "Point",
				"coordinates" : [ 8.534073322, 47.3750135218 ]
			},
			"properties" : {
				"abkuerzung" : "VZS_MILI",
				"bezeichnung" : "Militärbrücke",
				"bis" : null,
				"fk_zaehler" : "Y2G13124879",
				"id1" : 60,
				"richtung_in" : "Bahnhofstrasse",
				"richtung_out" : "Langstrasse",
				"von" : "20140312000000",
				"objectid" : "7",
				"korrekturfaktor" : 0.95
			}
		},
		{
			"type" : "Feature",
			"geometry" : {
				"type" : "Point",
				"coordinates" : [ 8.5356169115, 47.3586546756 ]
			},
			"properties" : {
				"abkuerzung" : "VZS_MYTH",
				"bezeichnung" : "Mythenquai",
				"bis" : "20181221000000",
				"fk_zaehler" : "ECO09113499",
				"id1" : 6,
				"richtung_in" : "Innenstadt",
				"richtung_out" : "Wollishofen",
				"von" : "20100714000000",
				"objectid" : "8",
				"korrekturfaktor" : 1.2
			}
		},
		{
			"type" : "Feature",
			"geometry" : {
				"type" : "Point",
				"coordinates" : [ 8.5507393116, 47.364581774 ]
			},
			"properties" : {
				"abkuerzung" : "VZS_MUEH",
				"bezeichnung" : "Mühlebachstrasse",
				"bis" : "20180927000000",
				"fk_zaehler" : "Y2G12102806",
				"id1" : 54,
				"richtung_in" : "Bellevue",
				"richtung_out" : "Riesbach",
				"von" : "20100923000000",
				"objectid" : "9",
				"korrekturfaktor" : 1.19
			}
		},
		{
			"type" : "Feature",
			"geometry" : {
				"type" : "Point",
				"coordinates" : [ 8.5370156548, 47.3796360809 ]
			},
			"properties" : {
				"abkuerzung" : "VZS_ZOLL",
				"bezeichnung" : "Zollstrasse",
				"bis" : "20190723000000",
				"fk_zaehler" : "Y2G13124876",
				"id1" : 57,
				"richtung_in" : "Sihlquai",
				"richtung_out" : "Langstrasse",
				"von" : "20140311000000",
				"objectid" : "10",
				"korrekturfaktor" : 1.49
			}
		},
		{
			"type" : "Feature",
			"geometry" : {
				"type" : "Point",
				"coordinates" : [ 8.5358446109, 47.3645713252 ]
			},
			"properties" : {
				"abkuerzung" : "VZS_TOED",
				"bezeichnung" : "Tödistrasse",
				"bis" : "20160726000000",
				"fk_zaehler" : "Y2G13124877",
				"id1" : 58,
				"richtung_in" : "Seeufer",
				"richtung_out" : "Hauptbahnhof",
				"von" : "20140311000000",
				"objectid" : "11",
				"korrekturfaktor" : 1.41
			}
		},
		{
			"type" : "Feature",
			"geometry" : {
				"type" : "Point",
				"coordinates" : [ 8.5343198515, 47.3715480383 ]
			},
			"properties" : {
				"abkuerzung" : "VZS_TALS",
				"bezeichnung" : "Talstrasse",
				"bis" : "20190919000000",
				"fk_zaehler" : "Y2G13124878",
				"id1" : 59,
				"richtung_in" : "Hauptbahnhof",
				"richtung_out" : "Seeufer",
				"von" : "20140312000000",
				"objectid" : "12",
				"korrekturfaktor" : 1.35
			}
		},
		{
			"type" : "Feature",
			"geometry" : {
				"type" : "Point",
				"coordinates" : [ 8.543725882, 47.410083515 ]
			},
			"properties" : {
				"abkuerzung" : "VZS_SCHU",
				"bezeichnung" : "Schulstrasse",
				"bis" : "20190314000000",
				"fk_zaehler" : "ECO10053914",
				"id1" : 15,
				"richtung_in" : "Irchel",
				"richtung_out" : "Bahnhof Oerlikon",
				"von" : "20120808000000",
				"objectid" : "13",
				"korrekturfaktor" : 1.43
			}
		},
		{
			"type" : "Feature",
			"geometry" : {
				"type" : "Point",
				"coordinates" : [ 8.5232863887, 47.4136413252 ]
			},
			"properties" : {
				"abkuerzung" : "VZS_BINZ",
				"bezeichnung" : "Binzmühlestrasse",
				"bis" : "20180929000000",
				"fk_zaehler" : "ECO09113500",
				"id1" : 2960,
				"richtung_in" : "Oerlikon",
				"richtung_out" : "Glaubtenstrasse",
				"von" : "20180411000000",
				"objectid" : "14",
				"korrekturfaktor" : 1.22
			}
		},
		{
			"type" : "Feature",
			"geometry" : {
				"type" : "Point",
				"coordinates" : [ 8.559332129, 47.4130814486 ]
			},
			"properties" : {
				"abkuerzung" : "VZS_ANDR",
				"bezeichnung" : "Andreasstrasse",
				"bis" : "20190922000000",
				"fk_zaehler" : "ECO07091438",
				"id1" : 3928,
				"richtung_in" : "Oerlikon",
				"richtung_out" : "Wallisellen",
				"von" : "20190313000000",
				"objectid" : "15",
				"korrekturfaktor" : 1.14
			}
		},
		{
			"type" : "Feature",
			"geometry" : {
				"type" : "Point",
				"coordinates" : [ 8.543725882, 47.410083515 ]
			},
			"properties" : {
				"abkuerzung" : "VZS_SCHU",
				"bezeichnung" : "Schulstrasse",
				"bis" : "20190618000000",
				"fk_zaehler" : "ECO06040592",
				"id1" : 3929,
				"richtung_in" : "Irchel",
				"richtung_out" : "Bahnhof Oerlikon",
				"von" : "20190315000000",
				"objectid" : "16",
				"korrekturfaktor" : 1.43
			}
		},
		{
			"type" : "Feature",
			"geometry" : {
				"type" : "Point",
				"coordinates" : [ 8.5339697736, 47.4007514851 ]
			},
			"properties" : {
				"abkuerzung" : "VZS_HOFW",
				"bezeichnung" : "Hofwiesenstrasse",
				"bis" : "20190618000000",
				"fk_zaehler" : "ECO07101504",
				"id1" : 3930,
				"richtung_in" : "Bucheggplatz",
				"richtung_out" : "---",
				"von" : "20190314000000",
				"objectid" : "17",
				"korrekturfaktor" : 1.28
			}
		},
		{
			"type" : "Feature",
			"geometry" : {
				"type" : "Point",
				"coordinates" : [ 8.5232863887, 47.4136413252 ]
			},
			"properties" : {
				"abkuerzung" : "VZS_BINZ",
				"bezeichnung" : "Binzmühlestrasse",
				"bis" : "20190510000000",
				"fk_zaehler" : "ECO08011668",
				"id1" : 3932,
				"richtung_in" : "Oerlikon",
				"richtung_out" : "Glaubtenstrasse",
				"von" : "20190315000000",
				"objectid" : "18",
				"korrekturfaktor" : 1.22
			}
		},
		{
			"type" : "Feature",
			"geometry" : {
				"type" : "Point",
				"coordinates" : [ 8.559332129, 47.4130814486 ]
			},
			"properties" : {
				"abkuerzung" : "VZS_ANDR",
				"bezeichnung" : "Andreasstrasse",
				"bis" : "20190313000000",
				"fk_zaehler" : "ECO09113502",
				"id1" : 9,
				"richtung_in" : "Oerlikon",
				"richtung_out" : "Wallisellen",
				"von" : "20101216000000",
				"objectid" : "19",
				"korrekturfaktor" : 1.14
			}
		},
		{
			"type" : "Feature",
			"geometry" : {
				"type" : "Point",
				"coordinates" : [ 8.5292398846, 47.369185446 ]
			},
			"properties" : {
				"abkuerzung" : "VZS_SIHL",
				"bezeichnung" : "Sihlpromenade",
				"bis" : "20181221000000",
				"fk_zaehler" : "ECO09113503",
				"id1" : 10,
				"richtung_in" : "Innenstadt",
				"richtung_out" : "Saalsporthalle",
				"von" : "20100714000000",
				"objectid" : "20",
				"korrekturfaktor" : 1.09
			}
		},
		{
			"type" : "Feature",
			"geometry" : {
				"type" : "Point",
				"coordinates" : [ 8.516258218, 47.3754330454 ]
			},
			"properties" : {
				"abkuerzung" : "VZS_BERT",
				"bezeichnung" : "Bertastrasse",
				"bis" : "20181221000000",
				"fk_zaehler" : "ECO09113506",
				"id1" : 12,
				"richtung_in" : "Wiedikon",
				"richtung_out" : "Aussersihl",
				"von" : "20100726000000",
				"objectid" : "21",
				"korrekturfaktor" : 1.27
			}
		},
		{
			"type" : "Feature",
			"geometry" : {
				"type" : "Point",
				"coordinates" : [ 8.5269194689, 47.387818305 ]
			},
			"properties" : {
				"abkuerzung" : "FZS_LETL",
				"bezeichnung" : "Lettenviadukt (Limmatstr.)",
				"bis" : "20151001000000",
				"fk_zaehler" : "U15G3063869",
				"id1" : 28,
				"richtung_in" : "Limmat",
				"richtung_out" : "Gleisanlagen",
				"von" : "20150331000000",
				"objectid" : "22",
				"korrekturfaktor" : 0.79
			}
		},
		{
			"type" : "Feature",
			"geometry" : {
				"type" : "Point",
				"coordinates" : [ 8.5347486265, 47.355055853 ]
			},
			"properties" : {
				"abkuerzung" : "FZS_MYTH",
				"bezeichnung" : "Mythenquai Unterführung",
				"bis" : "20150430000000",
				"fk_zaehler" : "U15G3104443",
				"id1" : 37,
				"richtung_in" : "Seeufer",
				"richtung_out" : "Bhf. Wollishofen",
				"von" : "20131128000000",
				"objectid" : "23",
				"korrekturfaktor" : 0.85
			}
		},
		{
			"type" : "Feature",
			"geometry" : {
				"type" : "Point",
				"coordinates" : [ 8.5370216304, 47.3625812002 ]
			},
			"properties" : {
				"abkuerzung" : "FZS_ARBO",
				"bezeichnung" : "Arboretum",
				"bis" : "20150908000000",
				"fk_zaehler" : "U15G3104446",
				"id1" : 46,
				"richtung_in" : "Stadtgrenze",
				"richtung_out" : "Innenstadt",
				"von" : "20150310000000",
				"objectid" : "24",
				"korrekturfaktor" : 1.02
			}
		},
		{
			"type" : "Feature",
			"geometry" : {
				"type" : "Point",
				"coordinates" : [ 8.4845774247, 47.4000739176 ]
			},
			"properties" : {
				"abkuerzung" : "VZS_FISC",
				"bezeichnung" : "Fischerweg",
				"bis" : "20200203000000",
				"fk_zaehler" : "Y0410090357",
				"id1" : 52,
				"richtung_in" : "Innenstadt",
				"richtung_out" : "Stadtgrenze",
				"von" : "20100709000000",
				"objectid" : "25",
				"korrekturfaktor" : 1
			}
		},
		{
			"type" : "Feature",
			"geometry" : {
				"type" : "Point",
				"coordinates" : [ 8.5435652595, 47.3691392233 ]
			},
			"properties" : {
				"abkuerzung" : "VZS_LIMC",
				"bezeichnung" : "Limmatquai --> Central",
				"bis" : null,
				"fk_zaehler" : "Y2G14045586",
				"id1" : 62,
				"richtung_in" : "Central",
				"richtung_out" : "---",
				"von" : "20140625000000",
				"objectid" : "26",
				"korrekturfaktor" : 1.33
			}
		},
		{
			"type" : "Feature",
			"geometry" : {
				"type" : "Point",
				"coordinates" : [ 8.5041283721, 47.395280815 ]
			},
			"properties" : {
				"abkuerzung" : "FZS_HARD",
				"bezeichnung" : "Hardeggsteg",
				"bis" : "20160331000000",
				"fk_zaehler" : "U15G4025180",
				"id1" : 1,
				"richtung_in" : "Kloster-Fahr-Weg",
				"richtung_out" : "Hardturmstrasse",
				"von" : "20151001000000",
				"objectid" : "27",
				"korrekturfaktor" : 0.86
			}
		},
		{
			"type" : "Feature",
			"geometry" : {
				"type" : "Point",
				"coordinates" : [ 8.487392603, 47.390960594 ]
			},
			"properties" : {
				"abkuerzung" : "FZS_ALTO",
				"bezeichnung" : "Altstetterstrasse Ost",
				"bis" : null,
				"fk_zaehler" : "U15G3063866",
				"id1" : 2,
				"richtung_in" : "Bhf. Altstetten",
				"richtung_out" : "Lindenplatz",
				"von" : "20151001000000",
				"objectid" : "28",
				"korrekturfaktor" : 1.02
			}
		},
		{
			"type" : "Feature",
			"geometry" : {
				"type" : "Point",
				"coordinates" : [ 8.5339474819, 47.4007575431 ]
			},
			"properties" : {
				"abkuerzung" : "VZS_HOFW",
				"bezeichnung" : "Hofwiesenstrasse",
				"bis" : null,
				"fk_zaehler" : "ECO09113507",
				"id1" : 2977,
				"richtung_in" : "Bucheggplatz",
				"richtung_out" : "---",
				"von" : "20190619000000",
				"objectid" : "29",
				"korrekturfaktor" : 1.28
			}
		},
		{
			"type" : "Feature",
			"geometry" : {
				"type" : "Point",
				"coordinates" : [ 8.5269194301, 47.3878180315 ]
			},
			"properties" : {
				"abkuerzung" : "FZS_LETL",
				"bezeichnung" : "Lettenviadukt (Limmatstr.)",
				"bis" : null,
				"fk_zaehler" : "U15G3063869",
				"id1" : 2999,
				"richtung_in" : "Limmat",
				"richtung_out" : "Gleisanlagen",
				"von" : "20200501000000",
				"objectid" : "30",
				"korrekturfaktor" : 0.79
			}
		},
		{
			"type" : "Feature",
			"geometry" : {
				"type" : "Point",
				"coordinates" : [ 8.4984509408, 47.4013186002 ]
			},
			"properties" : {
				"abkuerzung" : "FZS_CHOR",
				"bezeichnung" : "Chorherrenweg",
				"bis" : null,
				"fk_zaehler" : "U15G3063873",
				"id1" : 3000,
				"richtung_in" : "Limmat",
				"richtung_out" : "Meierhofplatz",
				"von" : "20200501000000",
				"objectid" : "31",
				"korrekturfaktor" : 0.74
			}
		},
		{
			"type" : "Feature",
			"geometry" : {
				"type" : "Point",
				"coordinates" : [ 8.5453772247, 47.3824347007 ]
			},
			"properties" : {
				"abkuerzung" : "VZS_SCHE",
				"bezeichnung" : "Scheuchzerstrasse",
				"bis" : "20181220000000",
				"fk_zaehler" : "ECO09113501",
				"id1" : 8,
				"richtung_in" : "Innenstadt",
				"richtung_out" : "Irchel",
				"von" : "20100923000000",
				"objectid" : "32",
				"korrekturfaktor" : 1.05
			}
		},
		{
			"type" : "Feature",
			"geometry" : {
				"type" : "Point",
				"coordinates" : [ 8.5347486265, 47.355055853 ]
			},
			"properties" : {
				"abkuerzung" : "FZS_MYTH",
				"bezeichnung" : "Mythenquai Unterführung",
				"bis" : "20160404000000",
				"fk_zaehler" : "U15G3104443",
				"id1" : 64,
				"richtung_in" : "Seeufer",
				"richtung_out" : "Bhf. Wollishofen",
				"von" : "20151007000000",
				"objectid" : "33",
				"korrekturfaktor" : 0.85
			}
		},
		{
			"type" : "Feature",
			"geometry" : {
				"type" : "Point",
				"coordinates" : [ 8.4872869734, 47.3910093522 ]
			},
			"properties" : {
				"abkuerzung" : "FZS_ALTW",
				"bezeichnung" : "Altstetterstrasse West",
				"bis" : null,
				"fk_zaehler" : "U15G3104445",
				"id1" : 65,
				"richtung_in" : "Bhf. Altstetten",
				"richtung_out" : "Lindenplatz",
				"von" : "20151016000000",
				"objectid" : "34",
				"korrekturfaktor" : 1.07
			}
		},
		{
			"type" : "Feature",
			"geometry" : {
				"type" : "Point",
				"coordinates" : [ 8.5410805471, 47.3706381634 ]
			},
			"properties" : {
				"abkuerzung" : "FZS_INGA",
				"bezeichnung" : "In Gassen",
				"bis" : "20170830000000",
				"fk_zaehler" : "YPH15108550",
				"id1" : 384,
				"richtung_in" : "Paradeplatz",
				"richtung_out" : "Rathaus",
				"von" : "20151021000000",
				"objectid" : "35",
				"korrekturfaktor" : 0.95
			}
		},
		{
			"type" : "Feature",
			"geometry" : {
				"type" : "Point",
				"coordinates" : [ 8.4894293153, 47.3901623396 ]
			},
			"properties" : {
				"abkuerzung" : "VZS_SAUM",
				"bezeichnung" : "Saumackerstrasse",
				"bis" : "20191115000000",
				"fk_zaehler" : "Y2G13124875",
				"id1" : 56,
				"richtung_in" : "Uetliberg",
				"richtung_out" : "Bahnhof Altstetten",
				"von" : "20140311000000",
				"objectid" : "36",
				"korrekturfaktor" : 1.27
			}
		},
		{
			"type" : "Feature",
			"geometry" : {
				"type" : "Point",
				"coordinates" : [ 8.5281894104, 47.3806192097 ]
			},
			"properties" : {
				"abkuerzung" : "VZS_LANN",
				"bezeichnung" : "Langstrasse (Unterführung Nord)",
				"bis" : "20170711000000",
				"fk_zaehler" : "Y2G12102807",
				"id1" : 55,
				"richtung_in" : "Helvetiaplatz",
				"richtung_out" : "Limmatplatz",
				"von" : "20130627000000",
				"objectid" : "37",
				"korrekturfaktor" : 0.96
			}
		},
		{
			"type" : "Feature",
			"geometry" : {
				"type" : "Point",
				"coordinates" : [ 8.5174929831, 47.425290122 ]
			},
			"properties" : {
				"abkuerzung" : "FZS_KATZ",
				"bezeichnung" : "Katzenbach",
				"bis" : "20151001000000",
				"fk_zaehler" : "U15G3104442",
				"id1" : 34,
				"richtung_in" : "Affoltern",
				"richtung_out" : "Seebach",
				"von" : "20150331000000",
				"objectid" : "38",
				"korrekturfaktor" : 0.18
			}
		},
		{
			"type" : "Feature",
			"geometry" : {
				"type" : "Point",
				"coordinates" : [ 8.5428096572, 47.3669543225 ]
			},
			"properties" : {
				"abkuerzung" : "FZS_QUAN",
				"bezeichnung" : "Quaibrücke Nord (Limmatseite)",
				"bis" : "20151124000000",
				"fk_zaehler" : "U15G3063868",
				"id1" : 26,
				"richtung_in" : "Bellevue",
				"richtung_out" : "Bürkliplatz",
				"von" : "20130823000000",
				"objectid" : "39",
				"korrekturfaktor" : 0.87
			}
		},
		{
			"type" : "Feature",
			"geometry" : {
				"type" : "Point",
				"coordinates" : [ 8.5292976942, 47.3817186625 ]
			},
			"properties" : {
				"abkuerzung" : "VZS_LANS",
				"bezeichnung" : "Langstrasse (Unterführung Süd)",
				"bis" : "20180615000000",
				"fk_zaehler" : "Y2H16039396",
				"id1" : 2962,
				"richtung_in" : "Helvetiaplatz",
				"richtung_out" : "Limmatplatz",
				"von" : "20180424000000",
				"objectid" : "40",
				"korrekturfaktor" : 1
			}
		},
		{
			"type" : "Feature",
			"geometry" : {
				"type" : "Point",
				"coordinates" : [ 8.5269194689, 47.387818305 ]
			},
			"properties" : {
				"abkuerzung" : "FZS_LETL",
				"bezeichnung" : "Lettenviadukt (Limmatstr.)",
				"bis" : "20160930000000",
				"fk_zaehler" : "U15G3063869",
				"id1" : 390,
				"richtung_in" : "Limmat",
				"richtung_out" : "Gleisanlagen",
				"von" : "20160330000000",
				"objectid" : "41",
				"korrekturfaktor" : 0.79
			}
		},
		{
			"type" : "Feature",
			"geometry" : {
				"type" : "Point",
				"coordinates" : [ 8.5453820514, 47.3824355575 ]
			},
			"properties" : {
				"abkuerzung" : "VZS_SCHE",
				"bezeichnung" : "Scheuchzerstrasse",
				"bis" : null,
				"fk_zaehler" : "Y2H19111477",
				"id1" : 2993,
				"richtung_in" : "Innenstadt",
				"richtung_out" : "Irchel",
				"von" : "20200110000000",
				"objectid" : "42",
				"korrekturfaktor" : 1.05
			}
		},
		{
			"type" : "Feature",
			"geometry" : {
				"type" : "Point",
				"coordinates" : [ 8.5041283721, 47.395280815 ]
			},
			"properties" : {
				"abkuerzung" : "FZS_HARD",
				"bezeichnung" : "Hardeggsteg",
				"bis" : "20140320000000",
				"fk_zaehler" : "U15G2092649",
				"id1" : 18,
				"richtung_in" : "Kloster-Fahr-Weg",
				"richtung_out" : "Hardturmstrasse",
				"von" : "20131128000000",
				"objectid" : "43",
				"korrekturfaktor" : 0.86
			}
		},
		{
			"type" : "Feature",
			"geometry" : {
				"type" : "Point",
				"coordinates" : [ 8.4874985148, 47.3909894422 ]
			},
			"properties" : {
				"abkuerzung" : "FZS_ALTO",
				"bezeichnung" : "Altstetterstrasse Ost",
				"bis" : "20150331000000",
				"fk_zaehler" : "U15G3063866",
				"id1" : 23,
				"richtung_in" : "Bhf. Altstetten",
				"richtung_out" : "Lindenplatz",
				"von" : "20131128000000",
				"objectid" : "44",
				"korrekturfaktor" : 1.02
			}
		},
		{
			"type" : "Feature",
			"geometry" : {
				"type" : "Point",
				"coordinates" : [ 8.4872869734, 47.3910093522 ]
			},
			"properties" : {
				"abkuerzung" : "FZS_ALTW",
				"bezeichnung" : "Altstetterstrasse West",
				"bis" : "20150331000000",
				"fk_zaehler" : "U15G3104445",
				"id1" : 43,
				"richtung_in" : "Bhf. Altstetten",
				"richtung_out" : "Lindenplatz",
				"von" : "20131128000000",
				"objectid" : "45",
				"korrekturfaktor" : 1.07
			}
		},
		{
			"type" : "Feature",
			"geometry" : {
				"type" : "Point",
				"coordinates" : [ 8.5372409654, 47.3428563717 ]
			},
			"properties" : {
				"abkuerzung" : "FZS_CASS",
				"bezeichnung" : "Cassiopeiasteg",
				"bis" : "20151007000000",
				"fk_zaehler" : "U15G3104443",
				"id1" : 36,
				"richtung_in" : "Stadtgrenze",
				"richtung_out" : "Bellevue",
				"von" : "20150430000000",
				"objectid" : "46",
				"korrekturfaktor" : 0.91
			}
		},
		{
			"type" : "Feature",
			"geometry" : {
				"type" : "Point",
				"coordinates" : [ 8.4984597677, 47.4013236367 ]
			},
			"properties" : {
				"abkuerzung" : "FZS_CHOR",
				"bezeichnung" : "Chorherrenweg",
				"bis" : "20151001000000",
				"fk_zaehler" : "U15G4025180",
				"id1" : 50,
				"richtung_in" : "Limmat",
				"richtung_out" : "Meierhofplatz",
				"von" : "20150331000000",
				"objectid" : "47",
				"korrekturfaktor" : 0.74
			}
		},
		{
			"type" : "Feature",
			"geometry" : {
				"type" : "Point",
				"coordinates" : [ 8.5041283721, 47.395280815 ]
			},
			"properties" : {
				"abkuerzung" : "FZS_HARD",
				"bezeichnung" : "Hardeggsteg",
				"bis" : "20150331000000",
				"fk_zaehler" : "U15G4025180",
				"id1" : 51,
				"richtung_in" : "Kloster-Fahr-Weg",
				"richtung_out" : "Hardturmstrasse",
				"von" : "20140320000000",
				"objectid" : "48",
				"korrekturfaktor" : 0.86
			}
		},
		{
			"type" : "Feature",
			"geometry" : {
				"type" : "Point",
				"coordinates" : [ 8.5410805471, 47.3706381634 ]
			},
			"properties" : {
				"abkuerzung" : "FZS_INGA",
				"bezeichnung" : "In Gassen",
				"bis" : "20150909000000",
				"fk_zaehler" : "YPH14106664",
				"id1" : 63,
				"richtung_in" : "Paradeplatz",
				"richtung_out" : "Rathaus",
				"von" : "20141107000000",
				"objectid" : "49",
				"korrekturfaktor" : 0.95
			}
		},
		{
			"type" : "Feature",
			"geometry" : {
				"type" : "Point",
				"coordinates" : [ 8.5375356567, 47.3842996193 ]
			},
			"properties" : {
				"abkuerzung" : "FZS_LETD",
				"bezeichnung" : "Letten / Dynamo",
				"bis" : "20150331000000",
				"fk_zaehler" : "U15G3063869",
				"id1" : 27,
				"richtung_in" : "Limmatplatz",
				"richtung_out" : "Hauptbahnhof",
				"von" : "20140710000000",
				"objectid" : "50",
				"korrekturfaktor" : 0.89
			}
		},
		{
			"type" : "Feature",
			"geometry" : {
				"type" : "Point",
				"coordinates" : [ 8.5375356567, 47.3842996193 ]
			},
			"properties" : {
				"abkuerzung" : "FZS_LETD",
				"bezeichnung" : "Letten / Dynamo",
				"bis" : "20160329000000",
				"fk_zaehler" : "U15G3063869",
				"id1" : 3,
				"richtung_in" : "Limmatplatz",
				"richtung_out" : "Hauptbahnhof",
				"von" : "20151001000000",
				"objectid" : "51",
				"korrekturfaktor" : 0.89
			}
		},
		{
			"type" : "Feature",
			"geometry" : {
				"type" : "Point",
				"coordinates" : [ 8.5457637341, 47.4108337924 ]
			},
			"properties" : {
				"abkuerzung" : "FZS_OHMO",
				"bezeichnung" : "Ohmstrasse Ost",
				"bis" : "20151001000000",
				"fk_zaehler" : "U15G3063866",
				"id1" : 24,
				"richtung_in" : "Bhf. Oerlikon",
				"richtung_out" : "Sternen Oerlikon",
				"von" : "20150331000000",
				"objectid" : "52",
				"korrekturfaktor" : 1.07
			}
		},
		{
			"type" : "Feature",
			"geometry" : {
				"type" : "Point",
				"coordinates" : [ 8.5459646591, 47.4106917338 ]
			},
			"properties" : {
				"abkuerzung" : "FZS_OHMW",
				"bezeichnung" : "Ohmstrasse West",
				"bis" : "20150925000000",
				"fk_zaehler" : "U15G3104445",
				"id1" : 44,
				"richtung_in" : "Bhf. Oerlikon",
				"richtung_out" : "Sternen Oerlikon",
				"von" : "20150331000000",
				"objectid" : "53",
				"korrekturfaktor" : 1.26
			}
		},
		{
			"type" : "Feature",
			"geometry" : {
				"type" : "Point",
				"coordinates" : [ 8.5437347523, 47.4100862156 ]
			},
			"properties" : {
				"abkuerzung" : "VZS_SCHU",
				"bezeichnung" : "Schulstrasse",
				"bis" : null,
				"fk_zaehler" : "ECO10053914",
				"id1" : 2978,
				"richtung_in" : "Irchel",
				"richtung_out" : "Bahnhof Oerlikon",
				"von" : "20190619000000",
				"objectid" : "54",
				"korrekturfaktor" : 1.43
			}
		},
		{
			"type" : "Feature",
			"geometry" : {
				"type" : "Point",
				"coordinates" : [ 8.5444886511, 47.3790313204 ]
			},
			"properties" : {
				"abkuerzung" : "FZS_WEIN",
				"bezeichnung" : "Weinbergfussweg",
				"bis" : "20200212000000",
				"fk_zaehler" : "U15G3063872",
				"id1" : 32,
				"richtung_in" : "Polyterrasse",
				"richtung_out" : "Hauptbahnhof",
				"von" : "20130711000000",
				"objectid" : "55",
				"korrekturfaktor" : 1.07
			}
		},
		{
			"type" : "Feature",
			"geometry" : {
				"type" : "Point",
				"coordinates" : [ 8.4984597677, 47.4013236367 ]
			},
			"properties" : {
				"abkuerzung" : "FZS_CHOR",
				"bezeichnung" : "Chorherrenweg",
				"bis" : "20160930000000",
				"fk_zaehler" : "U15G4025180",
				"id1" : 391,
				"richtung_in" : "Limmat",
				"richtung_out" : "Meierhofplatz",
				"von" : "20160401000000",
				"objectid" : "56",
				"korrekturfaktor" : 0.74
			}
		},
		{
			"type" : "Feature",
			"geometry" : {
				"type" : "Point",
				"coordinates" : [ 8.5410805471, 47.3706381634 ]
			},
			"properties" : {
				"abkuerzung" : "FZS_INGA",
				"bezeichnung" : "In Gassen",
				"bis" : "20141107000000",
				"fk_zaehler" : "U15G3063871",
				"id1" : 31,
				"richtung_in" : "Paradeplatz",
				"richtung_out" : "Rathaus",
				"von" : "20130711000000",
				"objectid" : "57",
				"korrekturfaktor" : 0.95
			}
		},
		{
			"type" : "Feature",
			"geometry" : {
				"type" : "Point",
				"coordinates" : [ 8.5292866798, 47.3817885566 ]
			},
			"properties" : {
				"abkuerzung" : "FZS_LANS",
				"bezeichnung" : "Langstrasse (Unterführung Süd)",
				"bis" : null,
				"fk_zaehler" : "U15G3104444",
				"id1" : 39,
				"richtung_in" : "Gleisanlagen",
				"richtung_out" : "Limmat",
				"von" : "20150310000000",
				"objectid" : "58",
				"korrekturfaktor" : 0.23
			}
		},
		{
			"type" : "Feature",
			"geometry" : {
				"type" : "Point",
				"coordinates" : [ 8.5287949382, 47.3816050235 ]
			},
			"properties" : {
				"abkuerzung" : "FZS_LANN",
				"bezeichnung" : "Langstrasse (Unterführung Nord)",
				"bis" : "20180208000000",
				"fk_zaehler" : "U15G3063870",
				"id1" : 30,
				"richtung_in" : "Limmatplatz",
				"richtung_out" : "Helvetiaplatz",
				"von" : "20130711000000",
				"objectid" : "59",
				"korrekturfaktor" : 0.32
			}
		},
		{
			"type" : "Feature",
			"geometry" : {
				"type" : "Point",
				"coordinates" : [ 8.5433254753, 47.3703468684 ]
			},
			"properties" : {
				"abkuerzung" : "FZS_LIMM",
				"bezeichnung" : "Limmatquai",
				"bis" : "20181001000000",
				"fk_zaehler" : "U15G3063873",
				"id1" : 33,
				"richtung_in" : "Rathaus",
				"richtung_out" : "Seeufer",
				"von" : "20130711000000",
				"objectid" : "60",
				"korrekturfaktor" : 1.11
			}
		},
		{
			"type" : "Feature",
			"geometry" : {
				"type" : "Point",
				"coordinates" : [ 8.5335222693, 47.3752616237 ]
			},
			"properties" : {
				"abkuerzung" : "FZS_MILI",
				"bezeichnung" : "Militärbrücke",
				"bis" : null,
				"fk_zaehler" : "U15G3063864",
				"id1" : 20,
				"richtung_in" : "Löwenplatz",
				"richtung_out" : "Langstrasse",
				"von" : "20130711000000",
				"objectid" : "61",
				"korrekturfaktor" : 0.58
			}
		},
		{
			"type" : "Feature",
			"geometry" : {
				"type" : "Point",
				"coordinates" : [ 8.5064340676, 47.419105361 ]
			},
			"properties" : {
				"abkuerzung" : "FZS_ZEHN",
				"bezeichnung" : "Zehntenhausplatz Unterführung",
				"bis" : "20150331000000",
				"fk_zaehler" : "U15G3104442",
				"id1" : 35,
				"richtung_in" : "Louis Conne Weg",
				"richtung_out" : "In Böden",
				"von" : "20131128000000",
				"objectid" : "62",
				"korrekturfaktor" : 0.95
			}
		},
		{
			"type" : "Feature",
			"geometry" : {
				"type" : "Point",
				"coordinates" : [ 8.5064340676, 47.419105361 ]
			},
			"properties" : {
				"abkuerzung" : "FZS_ZEHN",
				"bezeichnung" : "Zehntenhausplatz Unterführung",
				"bis" : "20160331000000",
				"fk_zaehler" : "U15G3104442",
				"id1" : 4,
				"richtung_in" : "Louis Conne Weg",
				"richtung_out" : "In Böden",
				"von" : "20151001000000",
				"objectid" : "63",
				"korrekturfaktor" : 0.95
			}
		},
		{
			"type" : "Feature",
			"geometry" : {
				"type" : "Point",
				"coordinates" : [ 8.5428607667, 47.3667158362 ]
			},
			"properties" : {
				"abkuerzung" : "FZS_QUAS",
				"bezeichnung" : "Quaibrücke Süd (Seeseite)",
				"bis" : "20160215000000",
				"fk_zaehler" : "U15G3063867",
				"id1" : 25,
				"richtung_in" : "Bellevue",
				"richtung_out" : "Bürkliplatz",
				"von" : "20130823000000",
				"objectid" : "64",
				"korrekturfaktor" : 1.04
			}
		},
		{
			"type" : "Feature",
			"geometry" : {
				"type" : "Point",
				"coordinates" : [ 8.5174929831, 47.425290122 ]
			},
			"properties" : {
				"abkuerzung" : "FZS_KATZ",
				"bezeichnung" : "Katzenbach",
				"bis" : "20171004000000",
				"fk_zaehler" : "U15G3104442",
				"id1" : 1691,
				"richtung_in" : "Affoltern",
				"richtung_out" : "Seebach",
				"von" : "20170411000000",
				"objectid" : "65",
				"korrekturfaktor" : 0.18
			}
		},
		{
			"type" : "Feature",
			"geometry" : {
				"type" : "Point",
				"coordinates" : [ 8.5281894104, 47.3806192097 ]
			},
			"properties" : {
				"abkuerzung" : "VZS_LANN",
				"bezeichnung" : "Langstrasse (Unterführung Nord)",
				"bis" : "20180920000000",
				"fk_zaehler" : "Y2G12102807",
				"id1" : 2319,
				"richtung_in" : "Helvetiaplatz",
				"richtung_out" : "Limmatplatz",
				"von" : "20170908000000",
				"objectid" : "66",
				"korrekturfaktor" : 0.96
			}
		},
		{
			"type" : "Feature",
			"geometry" : {
				"type" : "Point",
				"coordinates" : [ 8.5281894104, 47.3806192097 ]
			},
			"properties" : {
				"abkuerzung" : "VZS_LANN",
				"bezeichnung" : "Langstrasse (Unterführung Nord)",
				"bis" : "20191031000000",
				"fk_zaehler" : "Y2H18106793",
				"id1" : 3597,
				"richtung_in" : "Helvetiaplatz",
				"richtung_out" : "Limmatplatz",
				"von" : "20181030000000",
				"objectid" : "67",
				"korrekturfaktor" : 0.96
			}
		},
		{
			"type" : "Feature",
			"geometry" : {
				"type" : "Point",
				"coordinates" : [ 8.5334511915, 47.3989111433 ]
			},
			"properties" : {
				"abkuerzung" : "VZS_BUCH",
				"bezeichnung" : "Bucheggplatz",
				"bis" : null,
				"fk_zaehler" : "ECO07111527",
				"id1" : 2976,
				"richtung_in" : "Hofwiesenstrasse / Höngg",
				"richtung_out" : "---",
				"von" : "20190619000000",
				"objectid" : "68",
				"korrekturfaktor" : 1.27
			}
		},
		{
			"type" : "Feature",
			"geometry" : {
				"type" : "Point",
				"coordinates" : [ 8.5457607588, 47.4108321748 ]
			},
			"properties" : {
				"abkuerzung" : "FZS_OHMW",
				"bezeichnung" : "Ohmstrasse West",
				"bis" : null,
				"fk_zaehler" : "U15G3063867",
				"id1" : 1358,
				"richtung_in" : "Sternen Oerlikon",
				"richtung_out" : "Bhf. Oerlikon",
				"von" : "20160902000000",
				"objectid" : "69",
				"korrekturfaktor" : 1.26
			}
		},
		{
			"type" : "Feature",
			"geometry" : {
				"type" : "Point",
				"coordinates" : [ 8.5375356567, 47.3842996193 ]
			},
			"properties" : {
				"abkuerzung" : "FZS_LETD",
				"bezeichnung" : "Letten / Dynamo",
				"bis" : "20170410000000",
				"fk_zaehler" : "U15G3063869",
				"id1" : 1359,
				"richtung_in" : "Limmatplatz",
				"richtung_out" : "Hauptbahnhof",
				"von" : "20161001000000",
				"objectid" : "70",
				"korrekturfaktor" : 0.89
			}
		},
		{
			"type" : "Feature",
			"geometry" : {
				"type" : "Point",
				"coordinates" : [ 8.5041283721, 47.395280815 ]
			},
			"properties" : {
				"abkuerzung" : "FZS_HARD",
				"bezeichnung" : "Hardeggsteg",
				"bis" : "20170410000000",
				"fk_zaehler" : "U15G4025180",
				"id1" : 1360,
				"richtung_in" : "Kloster-Fahr-Weg",
				"richtung_out" : "Hardturmstrasse",
				"von" : "20161001000000",
				"objectid" : "71",
				"korrekturfaktor" : 0.86
			}
		},
		{
			"type" : "Feature",
			"geometry" : {
				"type" : "Point",
				"coordinates" : [ 8.5064340676, 47.419105361 ]
			},
			"properties" : {
				"abkuerzung" : "FZS_ZEHN",
				"bezeichnung" : "Zehntenhausplatz Unterführung",
				"bis" : "20170410000000",
				"fk_zaehler" : "U15G3104442",
				"id1" : 1361,
				"richtung_in" : "Louis Conne Weg",
				"richtung_out" : "In Böden",
				"von" : "20161001000000",
				"objectid" : "72",
				"korrekturfaktor" : 0.95
			}
		},
		{
			"type" : "Feature",
			"geometry" : {
				"type" : "Point",
				"coordinates" : [ 8.5347486265, 47.355055853 ]
			},
			"properties" : {
				"abkuerzung" : "FZS_MYTH",
				"bezeichnung" : "Mythenquai Unterführung",
				"bis" : "20170410000000",
				"fk_zaehler" : "U15G3104443",
				"id1" : 1362,
				"richtung_in" : "Seeufer",
				"richtung_out" : "Bhf. Wollishofen",
				"von" : "20161001000000",
				"objectid" : "73",
				"korrekturfaktor" : 0.85
			}
		},
		{
			"type" : "Feature",
			"geometry" : {
				"type" : "Point",
				"coordinates" : [ 8.5428607667, 47.3667158362 ]
			},
			"properties" : {
				"abkuerzung" : "FZS_QUAS",
				"bezeichnung" : "Quaibrücke Süd (Seeseite)",
				"bis" : "20170313000000",
				"fk_zaehler" : "YCH16039437",
				"id1" : 1365,
				"richtung_in" : "Bürkliplatz",
				"richtung_out" : "Bellevue",
				"von" : "20161018000000",
				"objectid" : "74",
				"korrekturfaktor" : 1
			}
		},
		{
			"type" : "Feature",
			"geometry" : {
				"type" : "Point",
				"coordinates" : [ 8.5292976942, 47.3817186625 ]
			},
			"properties" : {
				"abkuerzung" : "VZS_LANS",
				"bezeichnung" : "Langstrasse (Unterführung Süd)",
				"bis" : "20171002000000",
				"fk_zaehler" : "Y2G13013264",
				"id1" : 2320,
				"richtung_in" : "Helvetiaplatz",
				"richtung_out" : "Limmatplatz",
				"von" : "20170908000000",
				"objectid" : "75",
				"korrekturfaktor" : 1
			}
		},
		{
			"type" : "Feature",
			"geometry" : {
				"type" : "Point",
				"coordinates" : [ 8.4984597677, 47.4013236367 ]
			},
			"properties" : {
				"abkuerzung" : "FZS_CHOR",
				"bezeichnung" : "Chorherrenweg",
				"bis" : "20181001000000",
				"fk_zaehler" : "U15G4025180",
				"id1" : 2958,
				"richtung_in" : "Limmat",
				"richtung_out" : "Meierhofplatz",
				"von" : "20180410000000",
				"objectid" : "76",
				"korrekturfaktor" : 0.74
			}
		},
		{
			"type" : "Feature",
			"geometry" : {
				"type" : "Point",
				"coordinates" : [ 8.5269194689, 47.387818305 ]
			},
			"properties" : {
				"abkuerzung" : "FZS_LETL",
				"bezeichnung" : "Lettenviadukt (Limmatstr.)",
				"bis" : "20181001000000",
				"fk_zaehler" : "U15G3063869",
				"id1" : 2959,
				"richtung_in" : "Limmat",
				"richtung_out" : "Gleisanlagen",
				"von" : "20180410000000",
				"objectid" : "77",
				"korrekturfaktor" : 0.79
			}
		},
		{
			"type" : "Feature",
			"geometry" : {
				"type" : "Point",
				"coordinates" : [ 8.5507393116, 47.364581774 ]
			},
			"properties" : {
				"abkuerzung" : "VZS_MUEH",
				"bezeichnung" : "Mühlebachstrasse",
				"bis" : null,
				"fk_zaehler" : "Y2H18106792",
				"id1" : 3598,
				"richtung_in" : "Bellevue",
				"richtung_out" : "Riesbach",
				"von" : "20181031000000",
				"objectid" : "78",
				"korrekturfaktor" : 1.19
			}
		},
		{
			"type" : "Feature",
			"geometry" : {
				"type" : "Point",
				"coordinates" : [ 8.5334521513, 47.3989104954 ]
			},
			"properties" : {
				"abkuerzung" : "VZS_BUCH",
				"bezeichnung" : "Bucheggplatz",
				"bis" : "20190618000000",
				"fk_zaehler" : "ECO07111527",
				"id1" : 4237,
				"richtung_in" : "Hofwiesenstrasse",
				"richtung_out" : "Höngg",
				"von" : "20190314000000",
				"objectid" : "79",
				"korrekturfaktor" : 1.27
			}
		},
		{
			"type" : "Feature",
			"geometry" : {
				"type" : "Point",
				"coordinates" : [ 8.4984597677, 47.4013236367 ]
			},
			"properties" : {
				"abkuerzung" : "FZS_CHOR",
				"bezeichnung" : "Chorherrenweg",
				"bis" : "20190929000000",
				"fk_zaehler" : "U15G3063873",
				"id1" : 4238,
				"richtung_in" : "Limmat",
				"richtung_out" : "Meierhofplatz",
				"von" : "20190402000000",
				"objectid" : "80",
				"korrekturfaktor" : 0.74
			}
		},
		{
			"type" : "Feature",
			"geometry" : {
				"type" : "Point",
				"coordinates" : [ 8.5269194689, 47.387818305 ]
			},
			"properties" : {
				"abkuerzung" : "FZS_LETL",
				"bezeichnung" : "Lettenviadukt (Limmatstr.)",
				"bis" : "20191003000000",
				"fk_zaehler" : "U15G3063869",
				"id1" : 4239,
				"richtung_in" : "Limmat",
				"richtung_out" : "Gleisanlagen",
				"von" : "20190402000000",
				"objectid" : "81",
				"korrekturfaktor" : 0.79
			}
		},
		{
			"type" : "Feature",
			"geometry" : {
				"type" : "Point",
				"coordinates" : [ 8.5375321832, 47.384301313 ]
			},
			"properties" : {
				"abkuerzung" : "FZS_LETD",
				"bezeichnung" : "Letten / Dynamo",
				"bis" : "20200430000000",
				"fk_zaehler" : "U15G3063869",
				"id1" : 2984,
				"richtung_in" : "Limmatplatz",
				"richtung_out" : "Hauptbahnhof",
				"von" : "20191004000000",
				"objectid" : "82",
				"korrekturfaktor" : 0.89
			}
		},
		{
			"type" : "Feature",
			"geometry" : {
				"type" : "Point",
				"coordinates" : [ 8.5457637341, 47.4108337924 ]
			},
			"properties" : {
				"abkuerzung" : "FZS_OHMW",
				"bezeichnung" : "Ohmstrasse West",
				"bis" : "20160420000000",
				"fk_zaehler" : "U15G3063865",
				"id1" : 393,
				"richtung_in" : "Sternen Oerlikon",
				"richtung_out" : "Bhf. Oerlikon",
				"von" : "20160402000000",
				"objectid" : "83",
				"korrekturfaktor" : 1.26
			}
		},
		{
			"type" : "Feature",
			"geometry" : {
				"type" : "Point",
				"coordinates" : [ 8.5459646591, 47.4106917338 ]
			},
			"properties" : {
				"abkuerzung" : "FZS_OHMO",
				"bezeichnung" : "Ohmstrasse Ost",
				"bis" : null,
				"fk_zaehler" : "U15G3104447",
				"id1" : 394,
				"richtung_in" : "Bhf. Oerlikon",
				"richtung_out" : "Sternen Oerlikon",
				"von" : "20160401000000",
				"objectid" : "84",
				"korrekturfaktor" : 1.07
			}
		},
		{
			"type" : "Feature",
			"geometry" : {
				"type" : "Point",
				"coordinates" : [ 8.5174929831, 47.425290122 ]
			},
			"properties" : {
				"abkuerzung" : "FZS_KATZ",
				"bezeichnung" : "Katzenbach",
				"bis" : "20160930000000",
				"fk_zaehler" : "U15G3104442",
				"id1" : 392,
				"richtung_in" : "Affoltern",
				"richtung_out" : "Seebach",
				"von" : "20160401000000",
				"objectid" : "85",
				"korrekturfaktor" : 0.18
			}
		},
		{
			"type" : "Feature",
			"geometry" : {
				"type" : "Point",
				"coordinates" : [ 8.5372409654, 47.3428563717 ]
			},
			"properties" : {
				"abkuerzung" : "FZS_CASS",
				"bezeichnung" : "Cassiopeiasteg",
				"bis" : "20160930000000",
				"fk_zaehler" : "U15G3104443",
				"id1" : 395,
				"richtung_in" : "Stadtgrenze",
				"richtung_out" : "Bellevue",
				"von" : "20160405000000",
				"objectid" : "86",
				"korrekturfaktor" : 0.91
			}
		},
		{
			"type" : "Feature",
			"geometry" : {
				"type" : "Point",
				"coordinates" : [ 8.5358446109, 47.3645713252 ]
			},
			"properties" : {
				"abkuerzung" : "VZS_TOED",
				"bezeichnung" : "Tödistrasse",
				"bis" : null,
				"fk_zaehler" : "Y2G13124877",
				"id1" : 1692,
				"richtung_in" : "Seeufer",
				"richtung_out" : "Hauptbahnhof",
				"von" : "20170522000000",
				"objectid" : "87",
				"korrekturfaktor" : 1.41
			}
		},
		{
			"type" : "Feature",
			"geometry" : {
				"type" : "Point",
				"coordinates" : [ 8.5375356567, 47.3842996193 ]
			},
			"properties" : {
				"abkuerzung" : "FZS_LETD",
				"bezeichnung" : "Letten / Dynamo",
				"bis" : "20180409000000",
				"fk_zaehler" : "U15G3063869",
				"id1" : 2638,
				"richtung_in" : "Limmatplatz",
				"richtung_out" : "Hauptbahnhof",
				"von" : "20171005000000",
				"objectid" : "88",
				"korrekturfaktor" : 0.89
			}
		},
		{
			"type" : "Feature",
			"geometry" : {
				"type" : "Point",
				"coordinates" : [ 8.5041283721, 47.395280815 ]
			},
			"properties" : {
				"abkuerzung" : "FZS_HARD",
				"bezeichnung" : "Hardeggsteg",
				"bis" : "20180409000000",
				"fk_zaehler" : "U15G4025180",
				"id1" : 2639,
				"richtung_in" : "Kloster-Fahr-Weg",
				"richtung_out" : "Hardturmstrasse",
				"von" : "20171005000000",
				"objectid" : "89",
				"korrekturfaktor" : 0.86
			}
		},
		{
			"type" : "Feature",
			"geometry" : {
				"type" : "Point",
				"coordinates" : [ 8.5064340676, 47.419105361 ]
			},
			"properties" : {
				"abkuerzung" : "FZS_ZEHN",
				"bezeichnung" : "Zehntenhausplatz Unterführung",
				"bis" : null,
				"fk_zaehler" : "U15G3104442",
				"id1" : 2640,
				"richtung_in" : "Louis Conne Weg",
				"richtung_out" : "In Böden",
				"von" : "20171005000000",
				"objectid" : "90",
				"korrekturfaktor" : 0.95
			}
		},
		{
			"type" : "Feature",
			"geometry" : {
				"type" : "Point",
				"coordinates" : [ 8.5347486265, 47.355055853 ]
			},
			"properties" : {
				"abkuerzung" : "FZS_MYTH",
				"bezeichnung" : "Mythenquai Unterführung",
				"bis" : null,
				"fk_zaehler" : "U15G3104443",
				"id1" : 2641,
				"richtung_in" : "Seeufer",
				"richtung_out" : "Bhf. Wollishofen",
				"von" : "20171005000000",
				"objectid" : "91",
				"korrekturfaktor" : 0.85
			}
		},
		{
			"type" : "Feature",
			"geometry" : {
				"type" : "Point",
				"coordinates" : [ 8.5281914723, 47.3806145084 ]
			},
			"properties" : {
				"abkuerzung" : "VZS_LANN",
				"bezeichnung" : "Langstrasse (Unterführung Nord)",
				"bis" : null,
				"fk_zaehler" : "Y2H19101255",
				"id1" : 2989,
				"richtung_in" : "Helvetiaplatz",
				"richtung_out" : "Limmatplatz",
				"von" : "20191108000000",
				"objectid" : "92",
				"korrekturfaktor" : 0.96
			}
		},
		{
			"type" : "Feature",
			"geometry" : {
				"type" : "Point",
				"coordinates" : [ 8.5174873847, 47.4252925253 ]
			},
			"properties" : {
				"abkuerzung" : "FZS_KATZ",
				"bezeichnung" : "Katzenbach",
				"bis" : null,
				"fk_zaehler" : "YPH15108550",
				"id1" : 2994,
				"richtung_in" : "Affoltern",
				"richtung_out" : "Seebach",
				"von" : "20200203000000",
				"objectid" : "93",
				"korrekturfaktor" : 0.18
			}
		},
		{
			"type" : "Feature",
			"geometry" : {
				"type" : "Point",
				"coordinates" : [ 8.5292976942, 47.3817186625 ]
			},
			"properties" : {
				"abkuerzung" : "VZS_LANS",
				"bezeichnung" : "Langstrasse (Unterführung Süd)",
				"bis" : "20170908000000",
				"fk_zaehler" : "Y2H16039396",
				"id1" : 722,
				"richtung_in" : "Helvetiaplatz",
				"richtung_out" : "Limmatplatz",
				"von" : "20160427000000",
				"objectid" : "94",
				"korrekturfaktor" : 1
			}
		},
		{
			"type" : "Feature",
			"geometry" : {
				"type" : "Point",
				"coordinates" : [ 8.4990300217, 47.3986918641 ]
			},
			"properties" : {
				"abkuerzung" : "FZS_KLOE",
				"bezeichnung" : "Kloster-Fahr-Weg (Europabrücke)",
				"bis" : null,
				"fk_zaehler" : "U15G6121229",
				"id1" : 1681,
				"richtung_in" : "Werdinsel",
				"richtung_out" : "Innenstadt",
				"von" : "20170113000000",
				"objectid" : "95",
				"korrekturfaktor" : 1.1
			}
		},
		{
			"type" : "Feature",
			"geometry" : {
				"type" : "Point",
				"coordinates" : [ 8.5372409654, 47.3428563717 ]
			},
			"properties" : {
				"abkuerzung" : "FZS_CASS",
				"bezeichnung" : "Cassiopeiasteg",
				"bis" : null,
				"fk_zaehler" : "U15G3104446",
				"id1" : 2642,
				"richtung_in" : "Stadtgrenze",
				"richtung_out" : "Bellevue",
				"von" : "20171017000000",
				"objectid" : "96",
				"korrekturfaktor" : 0.91
			}
		},
		{
			"type" : "Feature",
			"geometry" : {
				"type" : "Point",
				"coordinates" : [ 8.5232863887, 47.4136413252 ]
			},
			"properties" : {
				"abkuerzung" : "VZS_BINZ",
				"bezeichnung" : "Binzmühlestrasse",
				"bis" : "20190314000000",
				"fk_zaehler" : "ECO09113500",
				"id1" : 3282,
				"richtung_in" : "Oerlikon",
				"richtung_out" : "Glaubtenstrasse",
				"von" : "20181010000000",
				"objectid" : "97",
				"korrekturfaktor" : 1.22
			}
		},
		{
			"type" : "Feature",
			"geometry" : {
				"type" : "Point",
				"coordinates" : [ 8.543438467, 47.3691202551 ]
			},
			"properties" : {
				"abkuerzung" : "VZS_LIMB",
				"bezeichnung" : "Limmatquai --> Bellevue",
				"bis" : null,
				"fk_zaehler" : "Y2H19070585",
				"id1" : 2982,
				"richtung_in" : "Bellevue",
				"richtung_out" : "---",
				"von" : "20190810000000",
				"objectid" : "98",
				"korrekturfaktor" : 1.47
			}
		},
		{
			"type" : "Feature",
			"geometry" : {
				"type" : "Point",
				"coordinates" : [ 8.4894588255, 47.3901658877 ]
			},
			"properties" : {
				"abkuerzung" : "VZS_SAUM",
				"bezeichnung" : "Saumackerstrasse",
				"bis" : null,
				"fk_zaehler" : "Y2H20011946",
				"id1" : 2996,
				"richtung_in" : "Uetliberg",
				"richtung_out" : "Bahnhof Altstetten",
				"von" : "20200214000000",
				"objectid" : "99",
				"korrekturfaktor" : 1.27
			}
		},
		{
			"type" : "Feature",
			"geometry" : {
				"type" : "Point",
				"coordinates" : [ 8.536958508, 47.3849982745 ]
			},
			"properties" : {
				"abkuerzung" : "VZS_LUXG",
				"bezeichnung" : "Lux-Guyer-Weg",
				"bis" : null,
				"fk_zaehler" : "Y2H19101198",
				"id1" : 2997,
				"richtung_in" : "Innenstadt",
				"richtung_out" : "Wipkingen",
				"von" : "20200214000000",
				"objectid" : "100",
				"korrekturfaktor" : 1
			}
		},
		{
			"type" : "Feature",
			"geometry" : {
				"type" : "Point",
				"coordinates" : [ 8.5370216304, 47.3625812002 ]
			},
			"properties" : {
				"abkuerzung" : "FZS_ARBO",
				"bezeichnung" : "Arboretum",
				"bis" : null,
				"fk_zaehler" : "U15G3063865",
				"id1" : 1357,
				"richtung_in" : "Stadtgrenze",
				"richtung_out" : "Innenstadt",
				"von" : "20160722000000",
				"objectid" : "101",
				"korrekturfaktor" : 1.02
			}
		},
		{
			"type" : "Feature",
			"geometry" : {
				"type" : "Point",
				"coordinates" : [ 8.5284252406, 47.3804936476 ]
			},
			"properties" : {
				"abkuerzung" : "VZS_LANS",
				"bezeichnung" : "Langstrasse (Unterführung Süd)",
				"bis" : null,
				"fk_zaehler" : "Y2H16039396",
				"id1" : 3277,
				"richtung_in" : "Limmatplatz",
				"richtung_out" : "Helvetiaplatz",
				"von" : "20180627000000",
				"objectid" : "102",
				"korrekturfaktor" : 1
			}
		},
		{
			"type" : "Feature",
			"geometry" : {
				"type" : "Point",
				"coordinates" : [ 8.5232962669, 47.4136386063 ]
			},
			"properties" : {
				"abkuerzung" : "VZS_BINZ",
				"bezeichnung" : "Binzmühlestrasse",
				"bis" : null,
				"fk_zaehler" : "ECO09113500",
				"id1" : 2979,
				"richtung_in" : "Oerlikon",
				"richtung_out" : "Glaubtenstrasse",
				"von" : "20190619000000",
				"objectid" : "103",
				"korrekturfaktor" : 1.22
			}
		},
		{
			"type" : "Feature",
			"geometry" : {
				"type" : "Point",
				"coordinates" : [ 8.5041317854, 47.3952777785 ]
			},
			"properties" : {
				"abkuerzung" : "FZS_HARD",
				"bezeichnung" : "Hardeggsteg",
				"bis" : "20200430000000",
				"fk_zaehler" : "U15G3063873",
				"id1" : 2985,
				"richtung_in" : "Kloster-Fahr-Weg",
				"richtung_out" : "Hardturmstrasse",
				"von" : "20191004000000",
				"objectid" : "104",
				"korrekturfaktor" : 0.86
			}
		},
		{
			"type" : "Feature",
			"geometry" : {
				"type" : "Point",
				"coordinates" : [ 8.5281894104, 47.3806192097 ]
			},
			"properties" : {
				"abkuerzung" : "VZS_LANN",
				"bezeichnung" : "Langstrasse (Unterführung Nord)",
				"bis" : "20170908000000",
				"fk_zaehler" : "Y2G13013264",
				"id1" : 1997,
				"richtung_in" : "Helvetiaplatz",
				"richtung_out" : "Limmatplatz",
				"von" : "20170725000000",
				"objectid" : "105",
				"korrekturfaktor" : 0.96
			}
		},
		{
			"type" : "Feature",
			"geometry" : {
				"type" : "Point",
				"coordinates" : [ 8.5174929831, 47.425290122 ]
			},
			"properties" : {
				"abkuerzung" : "FZS_KATZ",
				"bezeichnung" : "Katzenbach",
				"bis" : "20191123000000",
				"fk_zaehler" : "YPH15108550",
				"id1" : 2957,
				"richtung_in" : "Affoltern",
				"richtung_out" : "Seebach",
				"von" : "20171129000000",
				"objectid" : "106",
				"korrekturfaktor" : 0.18
			}
		},
		{
			"type" : "Feature",
			"geometry" : {
				"type" : "Point",
				"coordinates" : [ 8.5593270747, 47.4130760286 ]
			},
			"properties" : {
				"abkuerzung" : "VZS_ANDR",
				"bezeichnung" : "Andreasstrasse",
				"bis" : null,
				"fk_zaehler" : "Y2H19090841",
				"id1" : 2986,
				"richtung_in" : "Oerlikon",
				"richtung_out" : "Wallisellen",
				"von" : "20191011000000",
				"objectid" : "107",
				"korrekturfaktor" : 1.14
			}
		},
		{
			"type" : "Feature",
			"geometry" : {
				"type" : "Point",
				"coordinates" : [ 8.5444975789, 47.3790359587 ]
			},
			"properties" : {
				"abkuerzung" : "FZS_WEIN",
				"bezeichnung" : "Weinbergfussweg",
				"bis" : null,
				"fk_zaehler" : "U15G3063872",
				"id1" : 2998,
				"richtung_in" : "Polyterrasse",
				"richtung_out" : "Hauptbahnhof",
				"von" : "20200409000000",
				"objectid" : "108",
				"korrekturfaktor" : 1.07
			}
		},
		{
			"type" : "Feature",
			"geometry" : {
				"type" : "Point",
				"coordinates" : [ 8.5428096572, 47.3669543225 ]
			},
			"properties" : {
				"abkuerzung" : "FZS_QUAN",
				"bezeichnung" : "Quaibrücke Nord (Limmatseite)",
				"bis" : "20170313000000",
				"fk_zaehler" : "YCH16121210",
				"id1" : 1682,
				"richtung_in" : "Bellevue",
				"richtung_out" : "Bürkliplatz",
				"von" : "20170113000000",
				"objectid" : "109",
				"korrekturfaktor" : 1
			}
		},
		{
			"type" : "Feature",
			"geometry" : {
				"type" : "Point",
				"coordinates" : [ 8.5287949382, 47.3816050235 ]
			},
			"properties" : {
				"abkuerzung" : "FZS_LANN",
				"bezeichnung" : "Langstrasse (Unterführung Nord)",
				"bis" : null,
				"fk_zaehler" : "U15G3063870",
				"id1" : 2961,
				"richtung_in" : "Limmatplatz",
				"richtung_out" : "Helvetiaplatz",
				"von" : "20180413000000",
				"objectid" : "110",
				"korrekturfaktor" : 0.32
			}
		},
		{
			"type" : "Feature",
			"geometry" : {
				"type" : "Point",
				"coordinates" : [ 8.5041283721, 47.395280815 ]
			},
			"properties" : {
				"abkuerzung" : "FZS_HARD",
				"bezeichnung" : "Hardeggsteg",
				"bis" : "20190401000000",
				"fk_zaehler" : "U15G3063873",
				"id1" : 3922,
				"richtung_in" : "Kloster-Fahr-Weg",
				"richtung_out" : "Hardturmstrasse",
				"von" : "20190116000000",
				"objectid" : "111",
				"korrekturfaktor" : 0.86
			}
		},
		{
			"type" : "Feature",
			"geometry" : {
				"type" : "Point",
				"coordinates" : [ 8.5155597572, 47.3837992638 ]
			},
			"properties" : {
				"abkuerzung" : "VZS_HARN",
				"bezeichnung" : "Hardbrücke Nord (Seite Altstetten)",
				"bis" : null,
				"fk_zaehler" : "Y2H16069942",
				"id1" : 732,
				"richtung_in" : "Escher-Wyss-Platz",
				"richtung_out" : "Hardplatz",
				"von" : "20160707000000",
				"objectid" : "112",
				"korrekturfaktor" : 1.1
			}
		},
		{
			"type" : "Feature",
			"geometry" : {
				"type" : "Point",
				"coordinates" : [ 8.5158156507, 47.3836302816 ]
			},
			"properties" : {
				"abkuerzung" : "VZS_HARS",
				"bezeichnung" : "Hardbrücke Süd (Seite HB)",
				"bis" : null,
				"fk_zaehler" : "Y2H16069943",
				"id1" : 1037,
				"richtung_in" : "Escher-Wyss-Platz",
				"richtung_out" : "Hardplatz",
				"von" : "20160707000000",
				"objectid" : "113",
				"korrekturfaktor" : 1.03
			}
		},
		{
			"type" : "Feature",
			"geometry" : {
				"type" : "Point",
				"coordinates" : [ 8.5269194689, 47.387818305 ]
			},
			"properties" : {
				"abkuerzung" : "FZS_LETL",
				"bezeichnung" : "Lettenviadukt (Limmatstr.)",
				"bis" : "20171004000000",
				"fk_zaehler" : "U15G3063869",
				"id1" : 1689,
				"richtung_in" : "Limmat",
				"richtung_out" : "Gleisanlagen",
				"von" : "20170410000000",
				"objectid" : "114",
				"korrekturfaktor" : 0.79
			}
		},
		{
			"type" : "Feature",
			"geometry" : {
				"type" : "Point",
				"coordinates" : [ 8.5372409654, 47.3428563717 ]
			},
			"properties" : {
				"abkuerzung" : "FZS_CASS",
				"bezeichnung" : "Cassiopeiasteg",
				"bis" : "20171004000000",
				"fk_zaehler" : "U15G3104443",
				"id1" : 1688,
				"richtung_in" : "Stadtgrenze",
				"richtung_out" : "Bellevue",
				"von" : "20170411000000",
				"objectid" : "115",
				"korrekturfaktor" : 0.91
			}
		},
		{
			"type" : "Feature",
			"geometry" : {
				"type" : "Point",
				"coordinates" : [ 8.4984597677, 47.4013236367 ]
			},
			"properties" : {
				"abkuerzung" : "FZS_CHOR",
				"bezeichnung" : "Chorherrenweg",
				"bis" : "20171004000000",
				"fk_zaehler" : "U15G4025180",
				"id1" : 1690,
				"richtung_in" : "Limmat",
				"richtung_out" : "Meierhofplatz",
				"von" : "20170411000000",
				"objectid" : "116",
				"korrekturfaktor" : 0.74
			}
		},
		{
			"type" : "Feature",
			"geometry" : {
				"type" : "Point",
				"coordinates" : [ 8.5292976942, 47.3817186625 ]
			},
			"properties" : {
				"abkuerzung" : "VZS_LANS",
				"bezeichnung" : "Langstrasse (Unterführung Süd)",
				"bis" : "20180326000000",
				"fk_zaehler" : "Y2H16039396",
				"id1" : 2637,
				"richtung_in" : "Helvetiaplatz",
				"richtung_out" : "Limmatplatz",
				"von" : "20171003000000",
				"objectid" : "117",
				"korrekturfaktor" : 1
			}
		},
		{
			"type" : "Feature",
			"geometry" : {
				"type" : "Point",
				"coordinates" : [ 8.5041283721, 47.395280815 ]
			},
			"properties" : {
				"abkuerzung" : "FZS_HARD",
				"bezeichnung" : "Hardeggsteg",
				"bis" : "20190115000000",
				"fk_zaehler" : "U15G4025180",
				"id1" : 3278,
				"richtung_in" : "Kloster-Fahr-Weg",
				"richtung_out" : "Hardturmstrasse",
				"von" : "20181002000000",
				"objectid" : "118",
				"korrekturfaktor" : 0.86
			}
		},
		{
			"type" : "Feature",
			"geometry" : {
				"type" : "Point",
				"coordinates" : [ 8.5433254753, 47.3703468684 ]
			},
			"properties" : {
				"abkuerzung" : "FZS_LIMM",
				"bezeichnung" : "Limmatquai",
				"bis" : null,
				"fk_zaehler" : "YSH18065716",
				"id1" : 3279,
				"richtung_in" : "Rathaus",
				"richtung_out" : "Seeufer",
				"von" : "20181001000000",
				"objectid" : "119",
				"korrekturfaktor" : 1.11
			}
		},
		{
			"type" : "Feature",
			"geometry" : {
				"type" : "Point",
				"coordinates" : [ 8.5375356567, 47.3842996193 ]
			},
			"properties" : {
				"abkuerzung" : "FZS_LETD",
				"bezeichnung" : "Letten / Dynamo",
				"bis" : "20190401000000",
				"fk_zaehler" : "U15G3063869",
				"id1" : 3281,
				"richtung_in" : "Limmatplatz",
				"richtung_out" : "Hauptbahnhof",
				"von" : "20181001000000",
				"objectid" : "120",
				"korrekturfaktor" : 0.89
			}
		},
		{
			"type" : "Feature",
			"geometry" : {
				"type" : "Point",
				"coordinates" : [ 8.5369540662, 47.3849977821 ]
			},
			"properties" : {
				"abkuerzung" : "VZS_LUXG",
				"bezeichnung" : "Lux-Guyer-Weg",
				"bis" : "20190307000000",
				"fk_zaehler" : "ECO08011668",
				"id1" : 3917,
				"richtung_in" : "Innenstadt",
				"richtung_out" : "Wipkingen",
				"von" : "20181221000000",
				"objectid" : "121",
				"korrekturfaktor" : 1
			}
		},
		{
			"type" : "Feature",
			"geometry" : {
				"type" : "Point",
				"coordinates" : [ 8.5453772247, 47.3824347007 ]
			},
			"properties" : {
				"abkuerzung" : "VZS_SCHE",
				"bezeichnung" : "Scheuchzerstrasse",
				"bis" : "20190307000000",
				"fk_zaehler" : "ECO06040592",
				"id1" : 3918,
				"richtung_in" : "Innenstadt",
				"richtung_out" : "Irchel",
				"von" : "20181221000000",
				"objectid" : "122",
				"korrekturfaktor" : 1.05
			}
		},
		{
			"type" : "Feature",
			"geometry" : {
				"type" : "Point",
				"coordinates" : [ 8.5356169115, 47.3586546756 ]
			},
			"properties" : {
				"abkuerzung" : "VZS_MYTH",
				"bezeichnung" : "Mythenquai",
				"bis" : "20190307000000",
				"fk_zaehler" : "ECO07091438",
				"id1" : 3919,
				"richtung_in" : "Innenstadt",
				"richtung_out" : "Wollishofen",
				"von" : "20181222000000",
				"objectid" : "123",
				"korrekturfaktor" : 1.2
			}
		},
		{
			"type" : "Feature",
			"geometry" : {
				"type" : "Point",
				"coordinates" : [ 8.516258218, 47.3754330454 ]
			},
			"properties" : {
				"abkuerzung" : "VZS_BERT",
				"bezeichnung" : "Bertastrasse",
				"bis" : "20190308000000",
				"fk_zaehler" : "ECO07111527",
				"id1" : 3920,
				"richtung_in" : "Wiedikon",
				"richtung_out" : "Aussersihl",
				"von" : "20181221000000",
				"objectid" : "124",
				"korrekturfaktor" : 1.27
			}
		},
		{
			"type" : "Feature",
			"geometry" : {
				"type" : "Point",
				"coordinates" : [ 8.5292398846, 47.369185446 ]
			},
			"properties" : {
				"abkuerzung" : "VZS_SIHL",
				"bezeichnung" : "Sihlpromenade",
				"bis" : "20190308000000",
				"fk_zaehler" : "ECO07101504",
				"id1" : 3921,
				"richtung_in" : "Innenstadt",
				"richtung_out" : "Saalsporthalle",
				"von" : "20181222000000",
				"objectid" : "125",
				"korrekturfaktor" : 1.09
			}
		},
		{
			"type" : "Feature",
			"geometry" : {
				"type" : "Point",
				"coordinates" : [ 8.5343335928, 47.3715482431 ]
			},
			"properties" : {
				"abkuerzung" : "VZS_TALS",
				"bezeichnung" : "Talstrasse",
				"bis" : null,
				"fk_zaehler" : "Y2H19111476",
				"id1" : 2991,
				"richtung_in" : "Seeufer",
				"richtung_out" : "Hauptbahnhof",
				"von" : "20191204000000",
				"objectid" : "126",
				"korrekturfaktor" : 1.35
			}
		},
		{
			"type" : "Feature",
			"geometry" : {
				"type" : "Point",
				"coordinates" : [ 8.516258218, 47.3754330454 ]
			},
			"properties" : {
				"abkuerzung" : "VZS_BERT",
				"bezeichnung" : "Bertastrasse",
				"bis" : null,
				"fk_zaehler" : "ECO09113506",
				"id1" : 3923,
				"richtung_in" : "Wiedikon",
				"richtung_out" : "Aussersihl",
				"von" : "20190309000000",
				"objectid" : "127",
				"korrekturfaktor" : 1.27
			}
		},
		{
			"type" : "Feature",
			"geometry" : {
				"type" : "Point",
				"coordinates" : [ 8.5292398846, 47.369185446 ]
			},
			"properties" : {
				"abkuerzung" : "VZS_SIHL",
				"bezeichnung" : "Sihlpromenade",
				"bis" : null,
				"fk_zaehler" : "ECO09113503",
				"id1" : 3924,
				"richtung_in" : "Innenstadt",
				"richtung_out" : "Saalsporthalle",
				"von" : "20190309000000",
				"objectid" : "128",
				"korrekturfaktor" : 1.09
			}
		},
		{
			"type" : "Feature",
			"geometry" : {
				"type" : "Point",
				"coordinates" : [ 8.5453772247, 47.3824347007 ]
			},
			"properties" : {
				"abkuerzung" : "VZS_SCHE",
				"bezeichnung" : "Scheuchzerstrasse",
				"bis" : "20190704000000",
				"fk_zaehler" : "ECO09113501",
				"id1" : 3925,
				"richtung_in" : "Innenstadt",
				"richtung_out" : "Irchel",
				"von" : "20190308000000",
				"objectid" : "129",
				"korrekturfaktor" : 1.05
			}
		},
		{
			"type" : "Feature",
			"geometry" : {
				"type" : "Point",
				"coordinates" : [ 8.5369540662, 47.3849977821 ]
			},
			"properties" : {
				"abkuerzung" : "VZS_LUXG",
				"bezeichnung" : "Lux-Guyer-Weg",
				"bis" : "20200213000000",
				"fk_zaehler" : "ECO09022739",
				"id1" : 3926,
				"richtung_in" : "Innenstadt",
				"richtung_out" : "Wipkingen",
				"von" : "20190308000000",
				"objectid" : "130",
				"korrekturfaktor" : 1
			}
		},
		{
			"type" : "Feature",
			"geometry" : {
				"type" : "Point",
				"coordinates" : [ 8.5356169115, 47.3586546756 ]
			},
			"properties" : {
				"abkuerzung" : "VZS_MYTH",
				"bezeichnung" : "Mythenquai",
				"bis" : null,
				"fk_zaehler" : "ECO09113499",
				"id1" : 3927,
				"richtung_in" : "Innenstadt",
				"richtung_out" : "Wollishofen",
				"von" : "20190308000000",
				"objectid" : "131",
				"korrekturfaktor" : 1.2
			}
		},
		{
			"type" : "Feature",
			"geometry" : {
				"type" : "Point",
				"coordinates" : [ 8.5370007271, 47.3796380058 ]
			},
			"properties" : {
				"abkuerzung" : "VZS_ZOLL",
				"bezeichnung" : "Zollstrasse",
				"bis" : null,
				"fk_zaehler" : "Y2H19070283",
				"id1" : 2980,
				"richtung_in" : "Langstrasse",
				"richtung_out" : "Sihlquai",
				"von" : "20190723081500",
				"objectid" : "132",
				"korrekturfaktor" : 1.49
			}
		}
	]
}